[
    {
        "name":"N\/A",
        "operator":"N\/A",
        "power":"substation",
        "substation":"N\/A",
        "voltage":"N\/A",
        "frequency":"N\/A",
        "rating":"N\/A",
        "reference":"N\/A",
        "start_date":"N\/A",
        "location":"N\/A",
        "latitude":"12.9362606",
        "longitude":"77.6237622"
    },
    {
        "name":"N\/A",
        "operator":"N\/A",
        "power":"substation",
        "substation":"N\/A",
        "voltage":"N\/A",
        "frequency":"N\/A",
        "rating":"N\/A",
        "reference":"N\/A",
        "start_date":"N\/A",
        "location":"N\/A",
        "latitude":"13.0119654",
        "longitude":"77.5752904"
    },
    {
        "name":"N\/A",
        "operator":"N\/A",
        "power":"substation",
        "substation":"N\/A",
        "voltage":"N\/A",
        "frequency":"N\/A",
        "rating":"N\/A",
        "reference":"N\/A",
        "start_date":"N\/A",
        "location":"N\/A",
        "latitude":"12.8988404",
        "longitude":"77.6214406"
    },
    {
        "name":"N\/A",
        "operator":"N\/A",
        "power":"substation",
        "substation":"N\/A",
        "voltage":"N\/A",
        "frequency":"N\/A",
        "rating":"N\/A",
        "reference":"N\/A",
        "start_date":"N\/A",
        "location":"N\/A",
        "latitude":"12.8998321",
        "longitude":"77.6202030"
    },
    {
        "name":"N\/A",
        "operator":"N\/A",
        "power":"substation",
        "substation":"N\/A",
        "voltage":"N\/A",
        "frequency":"N\/A",
        "rating":"N\/A",
        "reference":"N\/A",
        "start_date":"N\/A",
        "location":"N\/A",
        "latitude":"12.8928529",
        "longitude":"77.6133610"
    },
    {
        "name":"N\/A",
        "operator":"N\/A",
        "power":"substation",
        "substation":"N\/A",
        "voltage":"N\/A",
        "frequency":"N\/A",
        "rating":"N\/A",
        "reference":"N\/A",
        "start_date":"N\/A",
        "location":"N\/A",
        "latitude":"12.9414316",
        "longitude":"77.6945339"
    },
    {
        "name":"N\/A",
        "operator":"N\/A",
        "power":"substation",
        "substation":"N\/A",
        "voltage":"N\/A",
        "frequency":"N\/A",
        "rating":"N\/A",
        "reference":"N\/A",
        "start_date":"N\/A",
        "location":"N\/A",
        "latitude":"13.0955480",
        "longitude":"77.5948785"
    },
    {
        "name":"N\/A",
        "operator":"N\/A",
        "power":"substation",
        "substation":"N\/A",
        "voltage":"N\/A",
        "frequency":"N\/A",
        "rating":"N\/A",
        "reference":"N\/A",
        "start_date":"N\/A",
        "location":"N\/A",
        "latitude":"12.8866386",
        "longitude":"77.5622186"
    },
    {
        "name":"N\/A",
        "operator":"N\/A",
        "power":"substation",
        "substation":"minor_distribution",
        "voltage":"N\/A",
        "frequency":"N\/A",
        "rating":"N\/A",
        "reference":"N\/A",
        "start_date":"N\/A",
        "location":"N\/A",
        "latitude":"12.9813158",
        "longitude":"77.6454392"
    },
    {
        "name":"HSR Layout Substation",
        "operator":"KPTCL",
        "power":"substation",
        "substation":"transmission",
        "voltage":"220000;66000",
        "frequency":"50",
        "rating":"400 MVA",
        "reference":"1201001CE",
        "start_date":"1998-01-26",
        "location":"outdoor",
        "latitude":12.9019557714,
        "longitude":77.6495542286
    },
    {
        "name":"BESCOM Office",
        "operator":"N\/A",
        "power":"substation",
        "substation":"N\/A",
        "voltage":"N\/A",
        "frequency":"N\/A",
        "rating":"N\/A",
        "reference":"N\/A",
        "start_date":"N\/A",
        "location":"N\/A",
        "latitude":12.907806625,
        "longitude":77.58044595
    },
    {
        "name":"Peenya Substation",
        "operator":"KPTCL",
        "power":"substation",
        "substation":"transmission",
        "voltage":"220000;66000",
        "frequency":"50",
        "rating":"450 MVA",
        "reference":"1104001CE",
        "start_date":"1965-01-25",
        "location":"outdoor",
        "latitude":13.0288332286,
        "longitude":77.5253671857
    },
    {
        "name":"Gokula",
        "operator":"N\/A",
        "power":"substation",
        "substation":"N\/A",
        "voltage":"N\/A",
        "frequency":"N\/A",
        "rating":"N\/A",
        "reference":"N\/A",
        "start_date":"N\/A",
        "location":"N\/A",
        "latitude":13.0442393571,
        "longitude":77.5537962571
    },
    {
        "name":"Mattikere",
        "operator":"N\/A",
        "power":"substation",
        "substation":"N\/A",
        "voltage":"N\/A",
        "frequency":"N\/A",
        "rating":"N\/A",
        "reference":"N\/A",
        "start_date":"N\/A",
        "location":"N\/A",
        "latitude":13.0382719167,
        "longitude":77.5586138
    },
    {
        "name":"Hoodi Substation",
        "operator":"KPTCL",
        "power":"substation",
        "substation":"transmission",
        "voltage":"400000;220000;66000",
        "frequency":"50",
        "rating":"1500 MVA",
        "reference":"1202002BC",
        "start_date":"1995-03-31",
        "location":"outdoor",
        "latitude":12.9951971154,
        "longitude":77.7120448885
    },
    {
        "name":"Adugodi Substation",
        "operator":"KPTCL",
        "power":"substation",
        "substation":"transmission",
        "voltage":"66000;11000",
        "frequency":"50",
        "rating":"60 MVA",
        "reference":"1201011EF",
        "start_date":"1964-08-19",
        "location":"outdoor",
        "latitude":12.9325901333,
        "longitude":77.6130363833
    },
    {
        "name":"RMV Layout",
        "operator":"KPTCL",
        "power":"substation",
        "substation":"distribution",
        "voltage":"66000",
        "frequency":"50",
        "rating":"N\/A",
        "reference":"N\/A",
        "start_date":"N\/A",
        "location":"outdoor",
        "latitude":13.0368178,
        "longitude":77.5663935833
    },
    {
        "name":"N\/A",
        "operator":"N\/A",
        "power":"substation",
        "substation":"N\/A",
        "voltage":"N\/A",
        "frequency":"N\/A",
        "rating":"N\/A",
        "reference":"N\/A",
        "start_date":"N\/A",
        "location":"N\/A",
        "latitude":12.9955209,
        "longitude":77.7478004667
    },
    {
        "name":"BESCOM Electrical Substation",
        "operator":"BESCOM",
        "power":"substation",
        "substation":"N\/A",
        "voltage":"N\/A",
        "frequency":"N\/A",
        "rating":"N\/A",
        "reference":"N\/A",
        "start_date":"N\/A",
        "location":"N\/A",
        "latitude":12.96289532,
        "longitude":77.64899768
    },
    {
        "name":"East Division Compound",
        "operator":"KPTCL",
        "power":"substation",
        "substation":"transmission",
        "voltage":"66000;11000",
        "frequency":"50",
        "rating":"63 MVA",
        "reference":"1101001EF",
        "start_date":"2010-12-20",
        "location":"outdoor",
        "latitude":12.97131765,
        "longitude":77.60496585
    },
    {
        "name":"N\/A",
        "operator":"BESCOM",
        "power":"substation",
        "substation":"N\/A",
        "voltage":"N\/A",
        "frequency":"N\/A",
        "rating":"N\/A",
        "reference":"N\/A",
        "start_date":"N\/A",
        "location":"N\/A",
        "latitude":12.96516512,
        "longitude":77.63649372
    },
    {
        "name":"BMTC Substation",
        "operator":"KPTCL",
        "power":"substation",
        "substation":"distribution",
        "voltage":"66000",
        "frequency":"50",
        "rating":"N\/A",
        "reference":"N\/A",
        "start_date":"N\/A",
        "location":"outdoor",
        "latitude":12.95438235,
        "longitude":77.5939425833
    },
    {
        "name":"NIMHANS Substation",
        "operator":"KPTCL",
        "power":"substation",
        "substation":"transmission",
        "voltage":"220000;66000",
        "frequency":"50",
        "rating":"300 MVA",
        "reference":"1201003CE",
        "start_date":"2012-02-26",
        "location":"outdoor",
        "latitude":12.9413778833,
        "longitude":77.5915235667
    },
    {
        "name":"EPIP Whitefield Substation",
        "operator":"KPTCL",
        "power":"substation",
        "substation":"distribution",
        "voltage":"220000;66000",
        "frequency":"50",
        "rating":"300 MVA",
        "reference":"1101002CE",
        "start_date":"2014-01-10",
        "location":"outdoor",
        "latitude":12.97673035,
        "longitude":77.7177136833
    },
    {
        "name":"Nandhini Layout Substation",
        "operator":"KPTCL",
        "power":"substation",
        "substation":"distribution",
        "voltage":"66000;11000",
        "frequency":"50",
        "rating":"51.5 MVA",
        "reference":"1104012EF",
        "start_date":"1990-06-08",
        "location":"outdoor",
        "latitude":13.0110853765,
        "longitude":77.5382820941
    },
    {
        "name":"Golf Links Substation",
        "operator":"KPTCL",
        "power":"substation",
        "substation":"transmission",
        "voltage":"66000;11000",
        "frequency":"50",
        "rating":"63 MVA",
        "reference":"1202020EF",
        "start_date":"2009-03-31",
        "location":"outdoor",
        "latitude":12.9536361667,
        "longitude":77.6413083167
    },
    {
        "name":"Hoody Traction",
        "operator":"South Western Railway",
        "power":"substation",
        "substation":"traction",
        "voltage":"220000",
        "frequency":"N\/A",
        "rating":"N\/A",
        "reference":"N\/A",
        "start_date":"N\/A",
        "location":"N\/A",
        "latitude":12.9966072667,
        "longitude":77.72779
    },
    {
        "name":"N\/A",
        "operator":"N\/A",
        "power":"substation",
        "substation":"N\/A",
        "voltage":"N\/A",
        "frequency":"N\/A",
        "rating":"N\/A",
        "reference":"N\/A",
        "start_date":"N\/A",
        "location":"N\/A",
        "latitude":13.01768364,
        "longitude":77.5073359
    },
    {
        "name":"Kengeri S Town",
        "operator":"N\/A",
        "power":"substation",
        "substation":"N\/A",
        "voltage":"N\/A",
        "frequency":"N\/A",
        "rating":"N\/A",
        "reference":"N\/A",
        "start_date":"N\/A",
        "location":"N\/A",
        "latitude":12.9189111375,
        "longitude":77.4745814
    },
    {
        "name":"Bagmane WTC",
        "operator":"N\/A",
        "power":"substation",
        "substation":"N\/A",
        "voltage":"N\/A",
        "frequency":"N\/A",
        "rating":"N\/A",
        "reference":"N\/A",
        "start_date":"N\/A",
        "location":"N\/A",
        "latitude":12.98468366,
        "longitude":77.69373322
    },
    {
        "name":"ISRO Layout Substation",
        "operator":"KPTCL",
        "power":"substation",
        "substation":"distribution",
        "voltage":"66000;11000",
        "frequency":"50",
        "rating":"40 MVA",
        "reference":"1204018EF",
        "start_date":"2007-01-01",
        "location":"outdoor",
        "latitude":12.89847335,
        "longitude":77.5569464333
    },
    {
        "name":"Naganathapura Substation",
        "operator":"KPTCL",
        "power":"substation",
        "substation":"distribution",
        "voltage":"66000;11000",
        "frequency":"50",
        "rating":"71.5 MVA",
        "reference":"1201002EF",
        "start_date":"1999-10-30",
        "location":"outdoor",
        "latitude":12.8738256667,
        "longitude":77.6578141111
    },
    {
        "name":"Subramanyapura Substation",
        "operator":"KPTCL",
        "power":"substation",
        "substation":"distribution",
        "voltage":"66000;11000",
        "frequency":"50",
        "rating":"40MVA",
        "reference":"1204001EF",
        "start_date":"1970-04-30",
        "location":"outdoor",
        "latitude":12.8967686083,
        "longitude":77.5469467417
    },
    {
        "name":"Subramanyapura Substation",
        "operator":"KPTCL",
        "power":"substation",
        "substation":"distribution",
        "voltage":"220000;66000",
        "frequency":"50",
        "rating":"400 MVA",
        "reference":"1204001CE",
        "start_date":"1986-10-02",
        "location":"outdoor",
        "latitude":12.8960803692,
        "longitude":77.5466244077
    },
    {
        "name":"Vrishabavathi Valley",
        "operator":"KPTCL",
        "power":"substation",
        "substation":"distribution",
        "voltage":"66000;11000",
        "frequency":"50",
        "rating":"63 MVA",
        "reference":"1103003EF",
        "start_date":"2009-03-04",
        "location":"outdoor",
        "latitude":12.9364314,
        "longitude":77.5206560375
    },
    {
        "name":"Manyata",
        "operator":"N\/A",
        "power":"substation",
        "substation":"N\/A",
        "voltage":"N\/A",
        "frequency":"N\/A",
        "rating":"N\/A",
        "reference":"N\/A",
        "start_date":"N\/A",
        "location":"N\/A",
        "latitude":13.0481240833,
        "longitude":77.6192055167
    },
    {
        "name":"Puttenahalli Substation",
        "operator":"KPTCL",
        "power":"substation",
        "substation":"distribution",
        "voltage":"66000;11000",
        "frequency":"50",
        "rating":"63 MVA",
        "reference":"1102002EF",
        "start_date":"2015-12-28",
        "location":"outdoor",
        "latitude":13.1150391125,
        "longitude":77.5839229
    },
    {
        "name":"N\/A",
        "operator":"N\/A",
        "power":"substation",
        "substation":"N\/A",
        "voltage":"N\/A",
        "frequency":"N\/A",
        "rating":"N\/A",
        "reference":"N\/A",
        "start_date":"N\/A",
        "location":"N\/A",
        "latitude":12.9888410833,
        "longitude":77.7037048333
    },
    {
        "name":"LR Bande Substation",
        "operator":"KPTCL",
        "power":"substation",
        "substation":"transmission",
        "voltage":"66000;11000",
        "frequency":"50",
        "rating":"51.5 MVA",
        "reference":"1102016EF",
        "start_date":"2003-07-25",
        "location":"outdoor",
        "latitude":13.0286164,
        "longitude":77.610269175
    },
    {
        "name":"Puttenahalli Substation",
        "operator":"KPTCL",
        "power":"substation",
        "substation":"distribution",
        "voltage":"220000;66000",
        "frequency":"50",
        "rating":"300 MVA",
        "reference":"1102002CE",
        "start_date":"2015-12-28",
        "location":"outdoor",
        "latitude":13.1144278417,
        "longitude":77.5804515583
    },
    {
        "name":"Hebbal Substation",
        "operator":"KPTCL",
        "power":"substation",
        "substation":"distribution",
        "voltage":"220000;66000",
        "frequency":"50",
        "rating":"200 MVA",
        "reference":"1102001CE",
        "start_date":"1994-07-02",
        "location":"outdoor",
        "latitude":13.0303038154,
        "longitude":77.5824132692
    },
    {
        "name":"HMT",
        "operator":"N\/A",
        "power":"substation",
        "substation":"N\/A",
        "voltage":"N\/A",
        "frequency":"N\/A",
        "rating":"N\/A",
        "reference":"N\/A",
        "start_date":"N\/A",
        "location":"N\/A",
        "latitude":13.05031932,
        "longitude":77.54707908
    },
    {
        "name":"N\/A",
        "operator":"N\/A",
        "power":"substation",
        "substation":"N\/A",
        "voltage":"N\/A",
        "frequency":"N\/A",
        "rating":"N\/A",
        "reference":"N\/A",
        "start_date":"N\/A",
        "location":"N\/A",
        "latitude":13.04527426,
        "longitude":77.58294674
    },
    {
        "name":"Sahakar Nagara",
        "operator":"KPTCL",
        "power":"substation",
        "substation":"transmission",
        "voltage":"220000;66000",
        "frequency":"N\/A",
        "rating":"N\/A",
        "reference":"N\/A",
        "start_date":"N\/A",
        "location":"N\/A",
        "latitude":13.06548298,
        "longitude":77.58231196
    },
    {
        "name":"CPRI",
        "operator":"N\/A",
        "power":"substation",
        "substation":"N\/A",
        "voltage":"220000",
        "frequency":"N\/A",
        "rating":"N\/A",
        "reference":"N\/A",
        "start_date":"N\/A",
        "location":"N\/A",
        "latitude":13.0258000429,
        "longitude":77.5811919571
    },
    {
        "name":"Abbigere",
        "operator":"N\/A",
        "power":"substation",
        "substation":"N\/A",
        "voltage":"N\/A",
        "frequency":"N\/A",
        "rating":"N\/A",
        "reference":"N\/A",
        "start_date":"N\/A",
        "location":"N\/A",
        "latitude":13.07286926,
        "longitude":77.5287174
    },
    {
        "name":"Electric Sub-Station",
        "operator":"BESCOM",
        "power":"substation",
        "substation":"N\/A",
        "voltage":"N\/A",
        "frequency":"N\/A",
        "rating":"N\/A",
        "reference":"N\/A",
        "start_date":"N\/A",
        "location":"N\/A",
        "latitude":12.92746985,
        "longitude":77.6679666833
    },
    {
        "name":"A Station",
        "operator":"KPTCL",
        "power":"substation",
        "substation":"transmission",
        "voltage":"220000",
        "frequency":"50",
        "rating":"N\/A",
        "reference":"N\/A",
        "start_date":"N\/A",
        "location":"outdoor",
        "latitude":12.9829288333,
        "longitude":77.5755545556
    },
    {
        "name":"N\/A",
        "operator":"N\/A",
        "power":"substation",
        "substation":"N\/A",
        "voltage":"N\/A",
        "frequency":"N\/A",
        "rating":"N\/A",
        "reference":"N\/A",
        "start_date":"N\/A",
        "location":"N\/A",
        "latitude":13.0438045,
        "longitude":77.5262029333
    },
    {
        "name":"Wellcast Steel",
        "operator":"N\/A",
        "power":"substation",
        "substation":"N\/A",
        "voltage":"N\/A",
        "frequency":"N\/A",
        "rating":"N\/A",
        "reference":"N\/A",
        "start_date":"N\/A",
        "location":"N\/A",
        "latitude":13.0436072556,
        "longitude":77.5260186444
    },
    {
        "name":"Padmanabha Nagar Substation",
        "operator":"KPTCL",
        "power":"substation",
        "substation":"distribution",
        "voltage":"66000;11000",
        "frequency":"50",
        "rating":"51.5 MVA",
        "reference":"1204017EF",
        "start_date":"2004-02-26",
        "location":"outdoor",
        "latitude":12.92211006,
        "longitude":77.5606583
    },
    {
        "name":"N\/A",
        "operator":"N\/A",
        "power":"substation",
        "substation":"N\/A",
        "voltage":"N\/A",
        "frequency":"N\/A",
        "rating":"N\/A",
        "reference":"N\/A",
        "start_date":"N\/A",
        "location":"N\/A",
        "latitude":12.94787464,
        "longitude":77.6445138
    },
    {
        "name":"N\/A",
        "operator":"N\/A",
        "power":"substation",
        "substation":"N\/A",
        "voltage":"N\/A",
        "frequency":"N\/A",
        "rating":"N\/A",
        "reference":"N\/A",
        "start_date":"N\/A",
        "location":"N\/A",
        "latitude":13.0704259889,
        "longitude":77.5808550444
    },
    {
        "name":"HBR Layout",
        "operator":"KPTCL",
        "power":"substation",
        "substation":"transmission",
        "voltage":"220000;66000;11000",
        "frequency":"50",
        "rating":"60 MVA",
        "reference":"1102019EF",
        "start_date":"2007-01-31",
        "location":"outdoor",
        "latitude":13.0300445714,
        "longitude":77.6277275571
    },
    {
        "name":"N\/A",
        "operator":"N\/A",
        "power":"substation",
        "substation":"N\/A",
        "voltage":"N\/A",
        "frequency":"N\/A",
        "rating":"N\/A",
        "reference":"N\/A",
        "start_date":"N\/A",
        "location":"N\/A",
        "latitude":12.98199476,
        "longitude":77.57470366
    },
    {
        "name":"KPTCL Ramanagara Circle",
        "operator":"KPTCL",
        "power":"substation",
        "substation":"N\/A",
        "voltage":"N\/A",
        "frequency":"N\/A",
        "rating":"N\/A",
        "reference":"N\/A",
        "start_date":"N\/A",
        "location":"N\/A",
        "latitude":12.93591892,
        "longitude":77.5207204
    },
    {
        "name":"N\/A",
        "operator":"N\/A",
        "power":"substation",
        "substation":"N\/A",
        "voltage":"N\/A",
        "frequency":"N\/A",
        "rating":"N\/A",
        "reference":"N\/A",
        "start_date":"N\/A",
        "location":"N\/A",
        "latitude":12.9774150667,
        "longitude":77.6646084667
    },
    {
        "name":"N\/A",
        "operator":"N\/A",
        "power":"substation",
        "substation":"N\/A",
        "voltage":"N\/A",
        "frequency":"N\/A",
        "rating":"N\/A",
        "reference":"N\/A",
        "start_date":"N\/A",
        "location":"N\/A",
        "latitude":12.9862074273,
        "longitude":77.6746913818
    },
    {
        "name":"B Station",
        "operator":"KPTCL",
        "power":"substation",
        "substation":"distribution",
        "voltage":"66000",
        "frequency":"50",
        "rating":"N\/A",
        "reference":"N\/A",
        "start_date":"1905",
        "location":"outdoor",
        "latitude":12.97405026,
        "longitude":77.6137798
    },
    {
        "name":"N\/A",
        "operator":"N\/A",
        "power":"substation",
        "substation":"N\/A",
        "voltage":"N\/A",
        "frequency":"N\/A",
        "rating":"N\/A",
        "reference":"N\/A",
        "start_date":"N\/A",
        "location":"N\/A",
        "latitude":13.0505983,
        "longitude":77.58087552
    },
    {
        "name":"Federal Moghul",
        "operator":"N\/A",
        "power":"substation",
        "substation":"N\/A",
        "voltage":"N\/A",
        "frequency":"N\/A",
        "rating":"N\/A",
        "reference":"N\/A",
        "start_date":"N\/A",
        "location":"N\/A",
        "latitude":13.1036099333,
        "longitude":77.58552785
    },
    {
        "name":"KHB Yelahanka",
        "operator":"KPTCL",
        "power":"substation",
        "substation":"distribution",
        "voltage":"66000;11000",
        "frequency":"50",
        "rating":"40 MVA",
        "reference":"1102015EF",
        "start_date":"2002-12-30",
        "location":"outdoor",
        "latitude":13.1092897833,
        "longitude":77.5773661167
    },
    {
        "name":"Wheel & Axle",
        "operator":"N\/A",
        "power":"substation",
        "substation":"N\/A",
        "voltage":"66000;11000",
        "frequency":"N\/A",
        "rating":"N\/A",
        "reference":"N\/A",
        "start_date":"N\/A",
        "location":"N\/A",
        "latitude":13.10724306,
        "longitude":77.58488102
    },
    {
        "name":"Yelahanka",
        "operator":"N\/A",
        "power":"substation",
        "substation":"N\/A",
        "voltage":"N\/A",
        "frequency":"N\/A",
        "rating":"N\/A",
        "reference":"N\/A",
        "start_date":"N\/A",
        "location":"N\/A",
        "latitude":13.09857054,
        "longitude":77.57024172
    },
    {
        "name":"Austin Town Substation",
        "operator":"KPTCL",
        "power":"substation",
        "substation":"transmission",
        "voltage":"66000;11000",
        "frequency":"50",
        "rating":"60 MVA",
        "reference":"1201013EF",
        "start_date":"1995-12-02",
        "location":"outdoor",
        "latitude":12.96387224,
        "longitude":77.61487862
    },
    {
        "name":"Koramangala Substation",
        "operator":"KPTCL",
        "power":"substation",
        "substation":"transmission",
        "voltage":"66000;11000",
        "frequency":"50",
        "rating":"40 MVA",
        "reference":"120104EF",
        "start_date":"1996-04-12",
        "location":"outdoor",
        "latitude":12.94315355,
        "longitude":77.6239266333
    },
    {
        "name":"KPTCL Power substation",
        "operator":"KPTCL",
        "power":"substation",
        "substation":"N\/A",
        "voltage":"N\/A",
        "frequency":"N\/A",
        "rating":"N\/A",
        "reference":"N\/A",
        "start_date":"N\/A",
        "location":"N\/A",
        "latitude":12.9268660333,
        "longitude":77.6795811667
    },
    {
        "name":"N\/A",
        "operator":"N\/A",
        "power":"substation",
        "substation":"N\/A",
        "voltage":"N\/A",
        "frequency":"N\/A",
        "rating":"N\/A",
        "reference":"N\/A",
        "start_date":"N\/A",
        "location":"N\/A",
        "latitude":13.02834276,
        "longitude":77.53347178
    },
    {
        "name":"BEL",
        "operator":"N\/A",
        "power":"substation",
        "substation":"N\/A",
        "voltage":"N\/A",
        "frequency":"N\/A",
        "rating":"N\/A",
        "reference":"N\/A",
        "start_date":"N\/A",
        "location":"N\/A",
        "latitude":13.0542966571,
        "longitude":77.5611278
    },
    {
        "name":"MEI Layout",
        "operator":"KPTCL",
        "power":"substation",
        "substation":"N\/A",
        "voltage":"N\/A",
        "frequency":"N\/A",
        "rating":"N\/A",
        "reference":"N\/A",
        "start_date":"N\/A",
        "location":"N\/A",
        "latitude":13.0616050125,
        "longitude":77.50614765
    },
    {
        "name":"Platinum City Power Station",
        "operator":"N\/A",
        "power":"substation",
        "substation":"N\/A",
        "voltage":"N\/A",
        "frequency":"N\/A",
        "rating":"N\/A",
        "reference":"N\/A",
        "start_date":"N\/A",
        "location":"N\/A",
        "latitude":13.0354838667,
        "longitude":77.5314539833
    },
    {
        "name":"Chandra Layout",
        "operator":"KPTCL",
        "power":"substation",
        "substation":"distribution",
        "voltage":"66000",
        "frequency":"50",
        "rating":"N\/A",
        "reference":"N\/A",
        "start_date":"N\/A",
        "location":"outdoor",
        "latitude":12.95866802,
        "longitude":77.52866432
    },
    {
        "name":"Mahalakshmi Layout",
        "operator":"KPTCL",
        "power":"substation",
        "substation":"distribution",
        "voltage":"66000",
        "frequency":"50",
        "rating":"N\/A",
        "reference":"N\/A",
        "start_date":"N\/A",
        "location":"outdoor",
        "latitude":13.0011078429,
        "longitude":77.5482123429
    },
    {
        "name":"Vijaya Nagar",
        "operator":"KPTCL",
        "power":"substation",
        "substation":"distribution",
        "voltage":"66000",
        "frequency":"50",
        "rating":"N\/A",
        "reference":"N\/A",
        "start_date":"N\/A",
        "location":"outdoor",
        "latitude":12.98015362,
        "longitude":77.53625428
    },
    {
        "name":"N\/A",
        "operator":"N\/A",
        "power":"substation",
        "substation":"N\/A",
        "voltage":"N\/A",
        "frequency":"N\/A",
        "rating":"N\/A",
        "reference":"N\/A",
        "start_date":"N\/A",
        "location":"N\/A",
        "latitude":12.8951747857,
        "longitude":77.5777581429
    },
    {
        "name":"Jayadeva",
        "operator":"KPTCL",
        "power":"substation",
        "substation":"transmission",
        "voltage":"66000;11000",
        "frequency":"50",
        "rating":"N\/A",
        "reference":"N\/A",
        "start_date":"N\/A",
        "location":"outdoor",
        "latitude":12.9201083857,
        "longitude":77.5991122429
    },
    {
        "name":"N\/A",
        "operator":"N\/A",
        "power":"substation",
        "substation":"N\/A",
        "voltage":"N\/A",
        "frequency":"N\/A",
        "rating":"N\/A",
        "reference":"N\/A",
        "start_date":"N\/A",
        "location":"N\/A",
        "latitude":13.05428394,
        "longitude":77.623947
    },
    {
        "name":"N\/A",
        "operator":"N\/A",
        "power":"substation",
        "substation":"N\/A",
        "voltage":"N\/A",
        "frequency":"N\/A",
        "rating":"N\/A",
        "reference":"N\/A",
        "start_date":"N\/A",
        "location":"N\/A",
        "latitude":12.9913514429,
        "longitude":77.6541751429
    },
    {
        "name":"HAL Substation",
        "operator":"KPTCL",
        "power":"substation",
        "substation":"distribution",
        "voltage":"66000;11000",
        "frequency":"50",
        "rating":"63 MVA",
        "reference":"1202001EF",
        "start_date":"1967-01-01",
        "location":"outdoor",
        "latitude":12.9685725182,
        "longitude":77.6623337636
    },
    {
        "name":"Banaswadi Substation",
        "operator":"KPTCL",
        "power":"substation",
        "substation":"distribution",
        "voltage":"66000;11000",
        "frequency":"50",
        "rating":"83 MVA",
        "reference":"1102013EF",
        "start_date":"1989-05-01",
        "location":"outdoor",
        "latitude":13.02040356,
        "longitude":77.64910708
    },
    {
        "name":"N\/A",
        "operator":"KPTCL",
        "power":"substation",
        "substation":"N\/A",
        "voltage":"N\/A",
        "frequency":"N\/A",
        "rating":"N\/A",
        "reference":"N\/A",
        "start_date":"N\/A",
        "location":"outdoor",
        "latitude":12.9477680333,
        "longitude":77.6984931
    },
    {
        "name":"Yelahanka CCPP",
        "operator":"KPCL",
        "power":"substation",
        "substation":"generation",
        "voltage":"220000",
        "frequency":"N\/A",
        "rating":"N\/A",
        "reference":"N\/A",
        "start_date":"N\/A",
        "location":"N\/A",
        "latitude":13.1158593,
        "longitude":77.58205044
    },
    {
        "name":"N\/A",
        "operator":"N\/A",
        "power":"substation",
        "substation":"N\/A",
        "voltage":"N\/A",
        "frequency":"N\/A",
        "rating":"N\/A",
        "reference":"N\/A",
        "start_date":"N\/A",
        "location":"N\/A",
        "latitude":12.93246316,
        "longitude":77.73197594
    },
    {
        "name":"C Station",
        "operator":"KPTCL",
        "power":"substation",
        "substation":"distribution",
        "voltage":"66000",
        "frequency":"50",
        "rating":"N\/A",
        "reference":"N\/A",
        "start_date":"1905",
        "location":"outdoor",
        "latitude":12.9923035,
        "longitude":77.59930418
    },
    {
        "name":"IISc MUSS",
        "operator":"KPTCL",
        "power":"substation",
        "substation":"distribution",
        "voltage":"66000",
        "frequency":"50",
        "rating":"N\/A",
        "reference":"N\/A",
        "start_date":"N\/A",
        "location":"indoor",
        "latitude":13.0151261857,
        "longitude":77.5635810571
    },
    {
        "name":"Khodays Glass Factory Substation",
        "operator":"KPTCL",
        "power":"substation",
        "substation":"distribution",
        "voltage":"220000;66000",
        "frequency":"50",
        "rating":"400 MVA",
        "reference":"1204002CE",
        "start_date":"1986-10-02",
        "location":"outdoor",
        "latitude":12.873733025,
        "longitude":77.5657948125
    },
    {
        "name":"N\/A",
        "operator":"N\/A",
        "power":"substation",
        "substation":"N\/A",
        "voltage":"N\/A",
        "frequency":"N\/A",
        "rating":"N\/A",
        "reference":"N\/A",
        "start_date":"N\/A",
        "location":"N\/A",
        "latitude":12.90442625,
        "longitude":77.6642622667
    },
    {
        "name":"N\/A",
        "operator":"N\/A",
        "power":"substation",
        "substation":"N\/A",
        "voltage":"N\/A",
        "frequency":"N\/A",
        "rating":"N\/A",
        "reference":"N\/A",
        "start_date":"N\/A",
        "location":"N\/A",
        "latitude":13.07702094,
        "longitude":77.6349335
    },
    {
        "name":"N\/A",
        "operator":"N\/A",
        "power":"substation",
        "substation":"N\/A",
        "voltage":"N\/A",
        "frequency":"N\/A",
        "rating":"N\/A",
        "reference":"N\/A",
        "start_date":"N\/A",
        "location":"N\/A",
        "latitude":13.02253502,
        "longitude":77.57636244
    },
    {
        "name":"N\/A",
        "operator":"N\/A",
        "power":"substation",
        "substation":"N\/A",
        "voltage":"N\/A",
        "frequency":"N\/A",
        "rating":"N\/A",
        "reference":"N\/A",
        "start_date":"N\/A",
        "location":"N\/A",
        "latitude":13.01890166,
        "longitude":77.57212914
    },
    {
        "name":"N\/A",
        "operator":"N\/A",
        "power":"substation",
        "substation":"N\/A",
        "voltage":"N\/A",
        "frequency":"N\/A",
        "rating":"N\/A",
        "reference":"N\/A",
        "start_date":"N\/A",
        "location":"N\/A",
        "latitude":12.94323032,
        "longitude":77.66761852
    },
    {
        "name":"Pottery Road",
        "operator":"KPTCL",
        "power":"substation",
        "substation":"distribution",
        "voltage":"66000;11000",
        "frequency":"N\/A",
        "rating":"N\/A",
        "reference":"1102011EF",
        "start_date":"N\/A",
        "location":"N\/A",
        "latitude":13.0019031,
        "longitude":77.6191241429
    },
    {
        "name":"Brigade Gateway Substation",
        "operator":"KPTCL",
        "power":"substation",
        "substation":"distribution",
        "voltage":"66000;11000",
        "frequency":"50",
        "rating":"40 MVA",
        "reference":"BGW",
        "start_date":"1101011EF",
        "location":"outdoor",
        "latitude":13.01479082,
        "longitude":77.55549124
    },
    {
        "name":"Vikas Tech Park Substation",
        "operator":"KTPCL",
        "power":"substation",
        "substation":"distribution",
        "voltage":"220000;66000",
        "frequency":"50",
        "rating":"300 MVA",
        "reference":"1202003CE",
        "start_date":"2017-03-05",
        "location":"outdoor",
        "latitude":12.9306744818,
        "longitude":77.6966716636
    },
    {
        "name":"N\/A",
        "operator":"N\/A",
        "power":"substation",
        "substation":"N\/A",
        "voltage":"N\/A",
        "frequency":"N\/A",
        "rating":"N\/A",
        "reference":"N\/A",
        "start_date":"N\/A",
        "location":"N\/A",
        "latitude":12.9816533143,
        "longitude":77.519086
    },
    {
        "name":"Exora",
        "operator":"KTPCL",
        "power":"substation",
        "substation":"transmission",
        "voltage":"220000;66000",
        "frequency":"N\/A",
        "rating":"N\/A",
        "reference":"N\/A",
        "start_date":"N\/A",
        "location":"N\/A",
        "latitude":12.9378563,
        "longitude":77.6973313222
    },
    {
        "name":"N\/A",
        "operator":"N\/A",
        "power":"substation",
        "substation":"N\/A",
        "voltage":"N\/A",
        "frequency":"N\/A",
        "rating":"N\/A",
        "reference":"N\/A",
        "start_date":"N\/A",
        "location":"N\/A",
        "latitude":12.967604,
        "longitude":77.72183475
    },
    {
        "name":"L&T Substation",
        "operator":"N\/A",
        "power":"substation",
        "substation":"minor_distribution",
        "voltage":"N\/A",
        "frequency":"N\/A",
        "rating":"N\/A",
        "reference":"N\/A",
        "start_date":"N\/A",
        "location":"outdoor",
        "latitude":13.0685265,
        "longitude":77.5882777
    },
    {
        "name":"N\/A",
        "operator":"KPTCL",
        "power":"substation",
        "substation":"minor_distribution",
        "voltage":"66000;11000",
        "frequency":"N\/A",
        "rating":"N\/A",
        "reference":"N\/A",
        "start_date":"N\/A",
        "location":"outdoor",
        "latitude":12.87503405,
        "longitude":77.6118211333
    },
    {
        "name":"KPTCL HMT Layout",
        "operator":"KPTCL",
        "power":"substation",
        "substation":"N\/A",
        "voltage":"66000",
        "frequency":"N\/A",
        "rating":"N\/A",
        "reference":"N\/A",
        "start_date":"N\/A",
        "location":"outdoor",
        "latitude":13.03451112,
        "longitude":77.50015822
    },
    {
        "name":"N\/A",
        "operator":"N\/A",
        "power":"substation",
        "substation":"N\/A",
        "voltage":"N\/A",
        "frequency":"N\/A",
        "rating":"N\/A",
        "reference":"N\/A",
        "start_date":"N\/A",
        "location":"N\/A",
        "latitude":12.9753307333,
        "longitude":77.60420525
    },
    {
        "name":"Kanteerava Stadium",
        "operator":"KPTCL",
        "power":"substation",
        "substation":"distribution",
        "voltage":"66000;11000",
        "frequency":"50",
        "rating":"63 MVA",
        "reference":"1101014EF",
        "start_date":"2014-01-10",
        "location":"indoor",
        "latitude":12.96991158,
        "longitude":77.59171602
    },
    {
        "name":"Victoria Hospital Substation",
        "operator":"KPTCL",
        "power":"substation",
        "substation":"distribution",
        "voltage":"66000",
        "frequency":"50",
        "rating":"N\/A",
        "reference":"N\/A",
        "start_date":"1905",
        "location":"outdoor",
        "latitude":12.96426432,
        "longitude":77.57299874
    },
    {
        "name":"Telecom Layout Substation",
        "operator":"KPTCL",
        "power":"substation",
        "substation":"distribution",
        "voltage":"66000",
        "frequency":"50",
        "rating":"N\/A",
        "reference":"N\/A",
        "start_date":"N\/A",
        "location":"outdoor",
        "latitude":12.966854975,
        "longitude":77.5457854
    },
    {
        "name":"Srigandhakavalu",
        "operator":"KPTCL",
        "power":"substation",
        "substation":"distribution",
        "voltage":"66000",
        "frequency":"50",
        "rating":"N\/A",
        "reference":"N\/A",
        "start_date":"N\/A",
        "location":"outdoor",
        "latitude":12.9788031,
        "longitude":77.50350712
    },
    {
        "name":"National College Substation",
        "operator":"KPTCL",
        "power":"substation",
        "substation":"distribution",
        "voltage":"66000;11000",
        "frequency":"50",
        "rating":"63 MVA",
        "reference":"1101015EF",
        "start_date":"2015-01-28",
        "location":"outdoor",
        "latitude":12.95295956,
        "longitude":77.57346502
    },
    {
        "name":"Jayanagar Substation",
        "operator":"KPTCL",
        "power":"substation",
        "substation":"distribution",
        "voltage":"66000;11000",
        "frequency":"50",
        "rating":"63 MVA",
        "reference":"1101013EF",
        "start_date":"2013-11-13",
        "location":"indoor",
        "latitude":12.93228726,
        "longitude":77.58338586
    },
    {
        "name":"REMCO",
        "operator":"KPTCL",
        "power":"substation",
        "substation":"distribution",
        "voltage":"66000;11000",
        "frequency":"50",
        "rating":"63 MVA",
        "reference":"110102EF",
        "start_date":"2010-12-03",
        "location":"indoor",
        "latitude":12.945702975,
        "longitude":77.5309818375
    },
    {
        "name":"East Division Compound",
        "operator":"KPTCL",
        "power":"substation",
        "substation":"transmission",
        "voltage":"220000;66000",
        "frequency":"50",
        "rating":"300 MVA",
        "reference":"1101001CE",
        "start_date":"2010-12-20",
        "location":"outdoor",
        "latitude":12.9716937,
        "longitude":77.604762325
    },
    {
        "name":"ITC Substation",
        "operator":"N\/A",
        "power":"substation",
        "substation":"transmission",
        "voltage":"66000;11000",
        "frequency":"50",
        "rating":"N\/A",
        "reference":"N\/A",
        "start_date":"N\/A",
        "location":"outdoor",
        "latitude":12.9979289143,
        "longitude":77.6237152714
    },
    {
        "name":"St Johns Wood Substation",
        "operator":"KPTCL",
        "power":"substation",
        "substation":"transmission",
        "voltage":"66000;11000",
        "frequency":"50",
        "rating":"40 MVA",
        "reference":"1201021EF",
        "start_date":"2009-03-30",
        "location":"outdoor",
        "latitude":12.9291224,
        "longitude":77.60968758
    },
    {
        "name":"Arehalli",
        "operator":"KPTCL",
        "power":"substation",
        "substation":"distribution",
        "voltage":"66000;11000",
        "frequency":"50",
        "rating":"40 MVA",
        "reference":"1204014EF",
        "start_date":"1999-11-04",
        "location":"outdoor",
        "latitude":12.9157736143,
        "longitude":77.5433811
    },
    {
        "name":"Banashankari",
        "operator":"KPTCL",
        "power":"substation",
        "substation":"distribution",
        "voltage":"66000;11000",
        "frequency":"50",
        "rating":"83 MVA",
        "reference":"1204011EF",
        "start_date":"1987-01-24",
        "location":"outdoor",
        "latitude":12.9347225667,
        "longitude":77.5387512333
    },
    {
        "name":"Rajajeshwari Nagar",
        "operator":"KPTCL",
        "power":"substation",
        "substation":"distribution",
        "voltage":"66000;11000",
        "frequency":"50",
        "rating":"40 MVA",
        "reference":"1204013EF",
        "start_date":"1998-12-31",
        "location":"outdoor",
        "latitude":12.9141677,
        "longitude":77.5284893333
    },
    {
        "name":"Vrishabavathi Valley Substation",
        "operator":"KPTCL",
        "power":"substation",
        "substation":"distribution",
        "voltage":"220000;66000",
        "frequency":"50",
        "rating":"300MVA",
        "reference":"1103003CE",
        "start_date":"2009-03-04",
        "location":"outdoor",
        "latitude":12.9357490429,
        "longitude":77.5205482
    },
    {
        "name":"Manyata Substation",
        "operator":"KPTCL",
        "power":"substation",
        "substation":"distribution",
        "voltage":"220000;66000",
        "frequency":"50",
        "rating":"500 MVA",
        "reference":"1102018BC",
        "start_date":"N\/A",
        "location":"outdoor",
        "latitude":13.0529292,
        "longitude":77.6150935571
    },
    {
        "name":"Vikas Tech Park Substation",
        "operator":"KTPCL",
        "power":"substation",
        "substation":"distribution",
        "voltage":"66000;11000",
        "frequency":"50",
        "rating":"63 MVA",
        "reference":"1202003EF",
        "start_date":"2017-03-05",
        "location":"outdoor",
        "latitude":12.9301737,
        "longitude":77.6965645571
    },
    {
        "name":"HAL Substation",
        "operator":"KPTCL",
        "power":"substation",
        "substation":"distribution",
        "voltage":"220000;66000",
        "frequency":"50",
        "rating":"300 MVA",
        "reference":"1202001CE",
        "start_date":"2008-08-31",
        "location":"outdoor",
        "latitude":12.96861004,
        "longitude":77.66156644
    },
    {
        "name":"Nimhans Substation",
        "operator":"KPTCL",
        "power":"substation",
        "substation":"transmission",
        "voltage":"66000;11000",
        "frequency":"50",
        "rating":"40 MVA",
        "reference":"1201003EF",
        "start_date":"2004-02-26",
        "location":"outdoor",
        "latitude":12.94115344,
        "longitude":77.5914762
    },
    {
        "name":"Naganathapura Substation",
        "operator":"KPTCL",
        "power":"substation",
        "substation":"distribution",
        "voltage":"220000;66000",
        "frequency":"50",
        "rating":"200 MVA",
        "reference":"1201002CE",
        "start_date":"2009-05-29",
        "location":"outdoor",
        "latitude":12.8745119286,
        "longitude":77.6578022429
    },
    {
        "name":"HSR Layout Substation",
        "operator":"KPTCL",
        "power":"substation",
        "substation":"transmission",
        "voltage":"66000;11000",
        "frequency":"50",
        "rating":"83 MVA",
        "reference":"1201001EF",
        "start_date":"1998-01-26",
        "location":"outdoor",
        "latitude":12.9028924375,
        "longitude":77.64944185
    },
    {
        "name":"Peenya Substation",
        "operator":"KPTCL",
        "power":"substation",
        "substation":"transmission",
        "voltage":"66000;11000",
        "frequency":"50",
        "rating":"159 MVA",
        "reference":"1104001EF",
        "start_date":"1965-01-25",
        "location":"outdoor",
        "latitude":13.02858824,
        "longitude":77.52632344
    },
    {
        "name":"N\/A",
        "operator":"N\/A",
        "power":"substation",
        "substation":"N\/A",
        "voltage":"N\/A",
        "frequency":"N\/A",
        "rating":"N\/A",
        "reference":"N\/A",
        "start_date":"N\/A",
        "location":"N\/A",
        "latitude":12.9256996833,
        "longitude":77.64054725
    },
    {
        "name":"N\/A",
        "operator":"N\/A",
        "power":"substation",
        "substation":"N\/A",
        "voltage":"N\/A",
        "frequency":"N\/A",
        "rating":"N\/A",
        "reference":"N\/A",
        "start_date":"N\/A",
        "location":"N\/A",
        "latitude":13.04620234,
        "longitude":77.64659418
    },
    {
        "name":"N\/A",
        "operator":"KPTCL",
        "power":"substation",
        "substation":"distribution",
        "voltage":"N\/A",
        "frequency":"N\/A",
        "rating":"N\/A",
        "reference":"N\/A",
        "start_date":"N\/A",
        "location":"outdoor",
        "latitude":13.01049246,
        "longitude":77.55416898
    },
    {
        "name":"Sobha Dream Acres Substation",
        "operator":"KPTCL",
        "power":"substation",
        "substation":"transmission",
        "voltage":"220000;66000",
        "frequency":"N\/A",
        "rating":"N\/A",
        "reference":"N\/A",
        "start_date":"N\/A",
        "location":"outdoor",
        "latitude":12.9309949167,
        "longitude":77.7230839
    },
    {
        "name":"N\/A",
        "operator":"N\/A",
        "power":"substation",
        "substation":"distribution",
        "voltage":"N\/A",
        "frequency":"N\/A",
        "rating":"N\/A",
        "reference":"N\/A",
        "start_date":"N\/A",
        "location":"outdoor",
        "latitude":12.92798248,
        "longitude":77.68201886
    },
    {
        "name":"N\/A",
        "operator":"N\/A",
        "power":"substation",
        "substation":"distribution",
        "voltage":"N\/A",
        "frequency":"N\/A",
        "rating":"N\/A",
        "reference":"N\/A",
        "start_date":"N\/A",
        "location":"outdoor",
        "latitude":12.92433052,
        "longitude":77.67988268
    },
    {
        "name":"N\/A",
        "operator":"N\/A",
        "power":"substation",
        "substation":"distribution",
        "voltage":"N\/A",
        "frequency":"50",
        "rating":"N\/A",
        "reference":"N\/A",
        "start_date":"N\/A",
        "location":"outdoor",
        "latitude":12.9185389,
        "longitude":77.6864785143
    },
    {
        "name":"N\/A",
        "operator":"N\/A",
        "power":"substation",
        "substation":"distribution",
        "voltage":"N\/A",
        "frequency":"N\/A",
        "rating":"N\/A",
        "reference":"N\/A",
        "start_date":"N\/A",
        "location":"outdoor",
        "latitude":12.98114918,
        "longitude":77.56226446
    },
    {
        "name":"BMRCL RSS",
        "operator":"BMRCL",
        "power":"substation",
        "substation":"minor_distribution",
        "voltage":"66000",
        "frequency":"50",
        "rating":"N\/A",
        "reference":"N\/A",
        "start_date":"N\/A",
        "location":"outdoor",
        "latitude":12.9884292667,
        "longitude":77.7491411667
    },
    {
        "name":"ITPL",
        "operator":"KPTCL",
        "power":"substation",
        "substation":"transmission",
        "voltage":"220000",
        "frequency":"N\/A",
        "rating":"N\/A",
        "reference":"N\/A",
        "start_date":"N\/A",
        "location":"N\/A",
        "latitude":12.98466437,
        "longitude":77.73640994
    },
    {
        "name":"Raheja Mansion Substation",
        "operator":"N\/A",
        "power":"substation",
        "substation":"minor_distribution",
        "voltage":"N\/A",
        "frequency":"N\/A",
        "rating":"N\/A",
        "reference":"N\/A",
        "start_date":"N\/A",
        "location":"outdoor",
        "latitude":13.0007993,
        "longitude":77.626676375
    },
    {
        "name":"ETV Substation",
        "operator":"N\/A",
        "power":"substation",
        "substation":"distribution",
        "voltage":"N\/A",
        "frequency":"N\/A",
        "rating":"N\/A",
        "reference":"N\/A",
        "start_date":"N\/A",
        "location":"outdoor",
        "latitude":12.9269591667,
        "longitude":77.6906209333
    },
    {
        "name":"N\/A",
        "operator":"N\/A",
        "power":"substation",
        "substation":"transmission",
        "voltage":"N\/A",
        "frequency":"N\/A",
        "rating":"N\/A",
        "reference":"N\/A",
        "start_date":"N\/A",
        "location":"N\/A",
        "latitude":12.93904138,
        "longitude":77.68885526
    },
    {
        "name":"N\/A",
        "operator":"N\/A",
        "power":"substation",
        "substation":"transmission",
        "voltage":"N\/A",
        "frequency":"N\/A",
        "rating":"N\/A",
        "reference":"N\/A",
        "start_date":"N\/A",
        "location":"N\/A",
        "latitude":12.94069228,
        "longitude":77.6905955
    },
    {
        "name":"N\/A",
        "operator":"N\/A",
        "power":"substation",
        "substation":"transmission",
        "voltage":"N\/A",
        "frequency":"N\/A",
        "rating":"N\/A",
        "reference":"N\/A",
        "start_date":"N\/A",
        "location":"N\/A",
        "latitude":12.9372998,
        "longitude":77.6973558
    },
    {
        "name":"Nagarbhavi KPTCL",
        "operator":"N\/A",
        "power":"substation",
        "substation":"distribution",
        "voltage":"220000",
        "frequency":"N\/A",
        "rating":"N\/A",
        "reference":"N\/A",
        "start_date":"N\/A",
        "location":"outdoor",
        "latitude":12.9672990417,
        "longitude":77.5118848167
    },
    {
        "name":"PLRD Electrict Yard",
        "operator":"N\/A",
        "power":"substation",
        "substation":"minor_distribution",
        "voltage":"N\/A",
        "frequency":"N\/A",
        "rating":"N\/A",
        "reference":"N\/A",
        "start_date":"N\/A",
        "location":"N\/A",
        "latitude":12.89649596,
        "longitude":77.54006708
    },
    {
        "name":"N\/A",
        "operator":"N\/A",
        "power":"substation",
        "substation":"minor_distribution",
        "voltage":"N\/A",
        "frequency":"N\/A",
        "rating":"N\/A",
        "reference":"N\/A",
        "start_date":"N\/A",
        "location":"N\/A",
        "latitude":12.89460964,
        "longitude":77.54067014
    },
    {
        "name":"N\/A",
        "operator":"N\/A",
        "power":"substation",
        "substation":"distribution",
        "voltage":"N\/A",
        "frequency":"N\/A",
        "rating":"N\/A",
        "reference":"N\/A",
        "start_date":"N\/A",
        "location":"outdoor",
        "latitude":12.88735034,
        "longitude":77.6108251
    },
    {
        "name":"N\/A",
        "operator":"N\/A",
        "power":"substation",
        "substation":"N\/A",
        "voltage":"N\/A",
        "frequency":"N\/A",
        "rating":"N\/A",
        "reference":"N\/A",
        "start_date":"N\/A",
        "location":"N\/A",
        "latitude":12.96692588,
        "longitude":77.694952
    },
    {
        "name":"N\/A",
        "operator":"N\/A",
        "power":"substation",
        "substation":"N\/A",
        "voltage":"N\/A",
        "frequency":"N\/A",
        "rating":"N\/A",
        "reference":"N\/A",
        "start_date":"N\/A",
        "location":"N\/A",
        "latitude":12.94142302,
        "longitude":77.71906574
    },
    {
        "name":"N\/A",
        "operator":"N\/A",
        "power":"substation",
        "substation":"N\/A",
        "voltage":"N\/A",
        "frequency":"N\/A",
        "rating":"N\/A",
        "reference":"N\/A",
        "start_date":"N\/A",
        "location":"N\/A",
        "latitude":12.9406812,
        "longitude":77.60687872
    },
    {
        "name":"N\/A",
        "operator":"N\/A",
        "power":"substation",
        "substation":"N\/A",
        "voltage":"N\/A",
        "frequency":"N\/A",
        "rating":"N\/A",
        "reference":"N\/A",
        "start_date":"N\/A",
        "location":"N\/A",
        "latitude":12.98565848,
        "longitude":77.48120844
    },
    {
        "name":"N\/A",
        "operator":"N\/A",
        "power":"substation",
        "substation":"minor_distribution",
        "voltage":"N\/A",
        "frequency":"N\/A",
        "rating":"N\/A",
        "reference":"N\/A",
        "start_date":"N\/A",
        "location":"outdoor",
        "latitude":13.06305886,
        "longitude":77.66200068
    },
    {
        "name":"Prestige Shantiniketan Substation",
        "operator":"N\/A",
        "power":"substation",
        "substation":"minor_distribution",
        "voltage":"N\/A",
        "frequency":"N\/A",
        "rating":"N\/A",
        "reference":"N\/A",
        "start_date":"N\/A",
        "location":"outdoor",
        "latitude":12.9896659,
        "longitude":77.7263868333
    },
    {
        "name":"N\/A",
        "operator":"N\/A",
        "power":"substation",
        "substation":"N\/A",
        "voltage":"N\/A",
        "frequency":"N\/A",
        "rating":"N\/A",
        "reference":"N\/A",
        "start_date":"N\/A",
        "location":"N\/A",
        "latitude":12.8730908,
        "longitude":77.6216037
    },
    {
        "name":"Hinduja Ecopolis Substation",
        "operator":"N\/A",
        "power":"substation",
        "substation":"minor_distribution",
        "voltage":"66000;11000",
        "frequency":"N\/A",
        "rating":"N\/A",
        "reference":"N\/A",
        "start_date":"N\/A",
        "location":"outdoor",
        "latitude":13.12515992,
        "longitude":77.61559774
    },
    {
        "name":"N\/A",
        "operator":"N\/A",
        "power":"substation",
        "substation":"minor_distribution",
        "voltage":"N\/A",
        "frequency":"N\/A",
        "rating":"N\/A",
        "reference":"N\/A",
        "start_date":"N\/A",
        "location":"outdoor",
        "latitude":12.995512,
        "longitude":77.6895358
    },
    {
        "name":"N\/A",
        "operator":"N\/A",
        "power":"substation",
        "substation":"minor_distribution",
        "voltage":"N\/A",
        "frequency":"N\/A",
        "rating":"N\/A",
        "reference":"N\/A",
        "start_date":"N\/A",
        "location":"outdoor",
        "latitude":12.9964710333,
        "longitude":77.7027612167
    },
    {
        "name":"N\/A",
        "operator":"N\/A",
        "power":"substation",
        "substation":"N\/A",
        "voltage":"N\/A",
        "frequency":"N\/A",
        "rating":"N\/A",
        "reference":"N\/A",
        "start_date":"N\/A",
        "location":"N\/A",
        "latitude":12.9847223667,
        "longitude":77.6925221833
    },
    {
        "name":"N\/A",
        "operator":"N\/A",
        "power":"substation",
        "substation":"N\/A",
        "voltage":"N\/A",
        "frequency":"N\/A",
        "rating":"N\/A",
        "reference":"N\/A",
        "start_date":"N\/A",
        "location":"N\/A",
        "latitude":12.88854596,
        "longitude":77.58054278
    },
    {
        "name":"N\/A",
        "operator":"N\/A",
        "power":"substation",
        "substation":"N\/A",
        "voltage":"N\/A",
        "frequency":"N\/A",
        "rating":"N\/A",
        "reference":"N\/A",
        "start_date":"N\/A",
        "location":"N\/A",
        "latitude":12.88869738,
        "longitude":77.58835082
    },
    {
        "name":"Brigade Tech Gardens Brookefield",
        "operator":"Karnataka Power Transmission Corporation Limited",
        "power":"substation",
        "substation":"N\/A",
        "voltage":"66000;11000",
        "frequency":"50",
        "rating":"N\/A",
        "reference":"N\/A",
        "start_date":"N\/A",
        "location":"outdoor",
        "latitude":12.9638704167,
        "longitude":77.72237755
    },
    {
        "name":"N\/A",
        "operator":"N\/A",
        "power":"substation",
        "substation":"minor_distribution",
        "voltage":"N\/A",
        "frequency":"N\/A",
        "rating":"N\/A",
        "reference":"N\/A",
        "start_date":"N\/A",
        "location":"outdoor",
        "latitude":13.06954598,
        "longitude":77.60721464
    },
    {
        "name":"SRS Peenya Substation",
        "operator":"KPTCL",
        "power":"substation",
        "substation":"transmission",
        "voltage":"400000;220000",
        "frequency":"50",
        "rating":"2x500 MVA",
        "reference":"N\/A",
        "start_date":"2024",
        "location":"outdoor",
        "latitude":13.0270458,
        "longitude":77.5247022222
    },
    {
        "name":"N\/A",
        "operator":"N\/A",
        "power":"substation",
        "substation":"N\/A",
        "voltage":"N\/A",
        "frequency":"N\/A",
        "rating":"N\/A",
        "reference":"N\/A",
        "start_date":"N\/A",
        "location":"N\/A",
        "latitude":13.05325606,
        "longitude":77.49897344
    },
    {
        "name":"N\/A",
        "operator":"N\/A",
        "power":"substation",
        "substation":"N\/A",
        "voltage":"N\/A",
        "frequency":"N\/A",
        "rating":"N\/A",
        "reference":"N\/A",
        "start_date":"N\/A",
        "location":"N\/A",
        "latitude":12.968871,
        "longitude":77.70681318
    },
    {
        "name":"N\/A",
        "operator":"N\/A",
        "power":"substation",
        "substation":"minor_distribution",
        "voltage":"N\/A",
        "frequency":"N\/A",
        "rating":"N\/A",
        "reference":"N\/A",
        "start_date":"N\/A",
        "location":"outdoor",
        "latitude":12.91698658,
        "longitude":77.50471876
    },
    {
        "name":"N\/A",
        "operator":"N\/A",
        "power":"substation",
        "substation":"minor_distribution",
        "voltage":"N\/A",
        "frequency":"N\/A",
        "rating":"N\/A",
        "reference":"N\/A",
        "start_date":"N\/A",
        "location":"outdoor",
        "latitude":12.9430050167,
        "longitude":77.4784362167
    },
    {
        "name":"N\/A",
        "operator":"N\/A",
        "power":"substation",
        "substation":"N\/A",
        "voltage":"N\/A",
        "frequency":"N\/A",
        "rating":"N\/A",
        "reference":"N\/A",
        "start_date":"N\/A",
        "location":"outdoor",
        "latitude":12.9462881,
        "longitude":77.76519592
    },
    {
        "name":"N\/A",
        "operator":"N\/A",
        "power":"substation",
        "substation":"N\/A",
        "voltage":"N\/A",
        "frequency":"N\/A",
        "rating":"N\/A",
        "reference":"N\/A",
        "start_date":"N\/A",
        "location":"outdoor",
        "latitude":12.8602737667,
        "longitude":77.55568895
    },
    {
        "name":"N\/A",
        "operator":"N\/A",
        "power":"substation",
        "substation":"N\/A",
        "voltage":"N\/A",
        "frequency":"N\/A",
        "rating":"N\/A",
        "reference":"N\/A",
        "start_date":"N\/A",
        "location":"N\/A",
        "latitude":12.87701806,
        "longitude":77.5304245
    },
    {
        "name":"N\/A",
        "operator":"N\/A",
        "power":"substation",
        "substation":"N\/A",
        "voltage":"N\/A",
        "frequency":"N\/A",
        "rating":"N\/A",
        "reference":"N\/A",
        "start_date":"N\/A",
        "location":"N\/A",
        "latitude":12.97812055,
        "longitude":77.65595465
    },
    {
        "name":"MUSS NGEF",
        "operator":"KPTCL",
        "power":"substation",
        "substation":"N\/A",
        "voltage":"66000;11000",
        "frequency":"N\/A",
        "rating":"N\/A",
        "reference":"N\/A",
        "start_date":"N\/A",
        "location":"outdoor",
        "latitude":12.9921464556,
        "longitude":77.6576638778
    },
    {
        "name":"ITI",
        "operator":"KPTCL",
        "power":"substation",
        "substation":"transmission",
        "voltage":"220000;66000",
        "frequency":"N\/A",
        "rating":"N\/A",
        "reference":"N\/A",
        "start_date":"N\/A",
        "location":"N\/A",
        "latitude":13.0050005429,
        "longitude":77.6865584
    },
    {
        "name":"Brindavan",
        "operator":"KPTCL",
        "power":"substation",
        "substation":"transmission",
        "voltage":"220000;66000;11000",
        "frequency":"N\/A",
        "rating":"N\/A",
        "reference":"N\/A",
        "start_date":"N\/A",
        "location":"N\/A",
        "latitude":13.0173977,
        "longitude":77.50668866
    },
    {
        "name":"N\/A",
        "operator":"N\/A",
        "power":"substation",
        "substation":"minor_distribution",
        "voltage":"N\/A",
        "frequency":"N\/A",
        "rating":"N\/A",
        "reference":"N\/A",
        "start_date":"N\/A",
        "location":"N\/A",
        "latitude":12.9469125,
        "longitude":77.74696374
    },
    {
        "name":"N\/A",
        "operator":"N\/A",
        "power":"substation",
        "substation":"N\/A",
        "voltage":"N\/A",
        "frequency":"N\/A",
        "rating":"N\/A",
        "reference":"N\/A",
        "start_date":"N\/A",
        "location":"N\/A",
        "latitude":12.9554123667,
        "longitude":77.6544753333
    },
    {
        "name":"N\/A",
        "operator":"N\/A",
        "power":"substation",
        "substation":"N\/A",
        "voltage":"N\/A",
        "frequency":"N\/A",
        "rating":"N\/A",
        "reference":"N\/A",
        "start_date":"N\/A",
        "location":"N\/A",
        "latitude":12.8751284333,
        "longitude":77.6116939333
    },
    {
        "name":"N\/A",
        "operator":"N\/A",
        "power":"substation",
        "substation":"N\/A",
        "voltage":"N\/A",
        "frequency":"N\/A",
        "rating":"N\/A",
        "reference":"N\/A",
        "start_date":"N\/A",
        "location":"N\/A",
        "latitude":12.86068948,
        "longitude":77.54094172
    },
    {
        "name":"N\/A",
        "operator":"N\/A",
        "power":"substation",
        "substation":"N\/A",
        "voltage":"N\/A",
        "frequency":"N\/A",
        "rating":"N\/A",
        "reference":"N\/A",
        "start_date":"N\/A",
        "location":"N\/A",
        "latitude":12.9647888429,
        "longitude":77.6536229286
    },
    {
        "name":"N\/A",
        "operator":"N\/A",
        "power":"substation",
        "substation":"N\/A",
        "voltage":"N\/A",
        "frequency":"N\/A",
        "rating":"N\/A",
        "reference":"N\/A",
        "start_date":"N\/A",
        "location":"N\/A",
        "latitude":13.0754760714,
        "longitude":77.6243435286
    },
    {
        "name":"Mathikere",
        "operator":"N\/A",
        "power":"substation",
        "substation":"transmission",
        "voltage":"220000",
        "frequency":"N\/A",
        "rating":"N\/A",
        "reference":"N\/A",
        "start_date":"N\/A",
        "location":"N\/A",
        "latitude":13.03680448,
        "longitude":77.55820224
    },
    {
        "name":"Whitefield",
        "operator":"N\/A",
        "power":"substation",
        "substation":"transmission",
        "voltage":"220000",
        "frequency":"N\/A",
        "rating":"N\/A",
        "reference":"N\/A",
        "start_date":"N\/A",
        "location":"N\/A",
        "latitude":12.9721620875,
        "longitude":77.76075535
    }
]